[
  {
    "id": 1629453600000,
    "title": "Central Park",
    "imageUrl": "https://images.unsplash.com/photo-1506744038136-46273834b3fb",
    "address": "New York, NY 10022",
    "location": { "lat": 40.785091, "lng": -73.968285 }
  },
  {
    "id": 1629540000000,
    "title": "Eiffel Tower",
    "imageUrl": "https://images.unsplash.com/photo-1469474968028-56623f02e42e",
    "address": "Champ de Mars, Paris",
    "location": { "lat": 48.858370, "lng": 2.294481 }
  },
  {
    "id": 1629626400000,
    "title": "Sydney Opera House",
    "imageUrl": "https://images.unsplash.com/photo-1500534314209-a25ddb2bd429",
    "address": "Bennelong Point, Sydney",
    "location": { "lat": -33.856784, "lng": 151.215297 }
  },
  {
    "id": 1629712800000,
    "title": "Mount Fuji",
    "imageUrl": "https://images.unsplash.com/photo-1519125323398-675f0ddb6308",
    "address": "Honshu Island, Japan",
    "location": { "lat": 35.360638, "lng": 138.727363 }
  },
  {
    "id": 1629799200000,
    "title": "Colosseum",
    "imageUrl": "https://images.unsplash.com/photo-1502086223501-7ea6ecd79368",
    "address": "Piazza del Colosseo, Rome",
    "location": { "lat": 41.890210, "lng": 12.492231 }
  },
  {
    "id": 1629885600000,
    "title": "Great Wall of China",
    "imageUrl": "https://images.unsplash.com/photo-1465101046530-73398c7f28ca",
    "address": "Huairou, China",
    "location": { "lat": 40.431908, "lng": 116.570374 }
  },
  {
    "id": 1629972000000,
    "title": "Santorini",
    "imageUrl": "https://images.unsplash.com/photo-1507525428034-b723cf961d3e",
    "address": "Santorini, Greece",
    "location": { "lat": 36.393156, "lng": 25.461509 }
  },
  {
    "id": 1630058400000,
    "title": "Statue of Liberty",
    "imageUrl": "https://images.unsplash.com/photo-1465101178521-c1a4c8a0a8b7",
    "address": "Liberty Island, New York",
    "location": { "lat": 40.689247, "lng": -74.044502 }
  },
  {
    "id": 1630144800000,
    "title": "Taj Mahal",
    "imageUrl": "https://images.unsplash.com/photo-1504198453319-5ce911bafcde",
    "address": "Agra, India",
    "location": { "lat": 27.175015, "lng": 78.042155 }
  },
  {
    "id": 1630231200000,
    "title": "Machu Picchu",
    "imageUrl": "https://images.unsplash.com/photo-1505678261036-a3fcc5e884ee",
    "address": "Cusco Region, Peru",
    "location": { "lat": -13.163141, "lng": -72.544963 }
  },
  {
    "id": 1630317600000,
    "title": "Golden Gate Bridge",
    "imageUrl": "https://images.unsplash.com/photo-1465101046530-73398c7f28ca",
    "address": "San Francisco, CA 94129",
    "location": { "lat": 37.819929, "lng": -122.478255 }
  },
  {
    "id": 1630404000000,
    "title": "Burj Khalifa",
    "imageUrl": "https://images.unsplash.com/photo-1506744038136-46273834b3fb",
    "address": "Dubai, UAE",
    "location": { "lat": 25.197197, "lng": 55.274376 }
  },
  {
    "id": 1630490400000,
    "title": "Christ the Redeemer",
    "imageUrl": "https://images.unsplash.com/photo-1469474968028-56623f02e42e",
    "address": "Rio de Janeiro, Brazil",
    "location": { "lat": -22.951916, "lng": -43.210487 }
  },
  {
    "id": 1630576800000,
    "title": "Stonehenge",
    "imageUrl": "https://images.unsplash.com/photo-1500534314209-a25ddb2bd429",
    "address": "Wiltshire, England",
    "location": { "lat": 51.178882, "lng": -1.826215 }
  },
  {
    "id": 1630663200000,
    "title": "Angkor Wat",
    "imageUrl": "https://images.unsplash.com/photo-1519125323398-675f0ddb6308",
    "address": "Siem Reap, Cambodia",
    "location": { "lat": 13.412469, "lng": 103.866986 }
  },
  {
    "id": 1630749600000,
    "title": "Grand Canyon",
    "imageUrl": "https://images.unsplash.com/photo-1502086223501-7ea6ecd79368",
    "address": "Arizona, USA",
    "location": { "lat": 36.106965, "lng": -112.112997 }
  },
  {
    "id": 1630836000000,
    "title": "Niagara Falls",
    "imageUrl": "https://images.unsplash.com/photo-1465101178521-c1a4c8a0a8b7",
    "address": "Ontario, Canada",
    "location": { "lat": 43.096214, "lng": -79.037739 }
  },
  {
    "id": 1630922400000,
    "title": "Petra",
    "imageUrl": "https://images.unsplash.com/photo-1504198453319-5ce911bafcde",
    "address": "Ma'an Governorate, Jordan",
    "location": { "lat": 30.328960, "lng": 35.444832 }
  },
  {
    "id": 1631008800000,
    "title": "Banff National Park",
    "imageUrl": "https://images.unsplash.com/photo-1505678261036-a3fcc5e884ee",
    "address": "Alberta, Canada",
    "location": { "lat": 51.496846, "lng": -115.928056 }
  },
  {
    "id": 1631095200000,
    "title": "Table Mountain",
    "imageUrl": "https://images.unsplash.com/photo-1507525428034-b723cf961d3e",
    "address": "Cape Town, South Africa",
    "location": { "lat": -33.962822, "lng": 18.409810 }
  }
]
